{"Id":1039,"Date":"2021-07-03T12:45:58.7772663+02:00","ServerName":"localhost","ServerVersion":"Microsoft SQL Server 2019 (RTM) - 15.0.2000.5 (X64) \n\tSep 24 2019 13:48:23 \n\tCopyright (C) 2019 Microsoft Corporation\n\tDeveloper Edition (64-bit) on Windows 10 Home 10.0 \u003CX64\u003E (Build 19042: )\n","Edition":"Developer Edition (64-bit)","ProcessorCount":"12","Memory":"33471732","WorkerCount":640,"CompatLevel":"150","Collation":"SQL_Latin1_General_CP1_CI_AS","IsXTPEnabled":"1","IsHADREnabled":"0","HyperThreadRatio":"12","Databases":[{"Id":1231,"DatabaseId":1,"Name":"master","State":"ONLINE","RecoveryModel":"SIMPLE","SnapshotIsolationLevel":"ON","IsEncrypted":"False","DatabaseSize":"6"},{"Id":1232,"DatabaseId":2,"Name":"tempdb","State":"ONLINE","RecoveryModel":"SIMPLE","SnapshotIsolationLevel":"OFF","IsEncrypted":"False","DatabaseSize":"72"},{"Id":1233,"DatabaseId":3,"Name":"model","State":"ONLINE","RecoveryModel":"FULL","SnapshotIsolationLevel":"OFF","IsEncrypted":"False","DatabaseSize":"16"},{"Id":1234,"DatabaseId":4,"Name":"msdb","State":"ONLINE","RecoveryModel":"SIMPLE","SnapshotIsolationLevel":"ON","IsEncrypted":"False","DatabaseSize":"14"},{"Id":1235,"DatabaseId":5,"Name":"sql_monitoring_db","State":"ONLINE","RecoveryModel":"FULL","SnapshotIsolationLevel":"OFF","IsEncrypted":"False","DatabaseSize":"400"},{"Id":1236,"DatabaseId":6,"Name":"backup_test","State":"ONLINE","RecoveryModel":"FULL","SnapshotIsolationLevel":"OFF","IsEncrypted":"False","DatabaseSize":"16"},{"Id":1237,"DatabaseId":7,"Name":"missing_backup_test","State":"ONLINE","RecoveryModel":"FULL","SnapshotIsolationLevel":"OFF","IsEncrypted":"False","DatabaseSize":"16"}],"DatabaseFiles":[{"Id":1719,"Db":{"Id":1231,"DatabaseId":1,"Name":"master","State":"ONLINE","RecoveryModel":"SIMPLE","SnapshotIsolationLevel":"ON","IsEncrypted":"False","DatabaseSize":"6"},"Name":"master","Size":568,"MaxSize":"-1","Type":"ROWS","State":"ONLINE","AutoGrowth":"10","Location":"C:\\Program Files\\Microsoft SQL Server\\MSSQL15.MSSQLSERVER\\MSSQL\\DATA\\master.mdf"},{"Id":1737,"Db":{"Id":1231,"DatabaseId":1,"Name":"master","State":"ONLINE","RecoveryModel":"SIMPLE","SnapshotIsolationLevel":"ON","IsEncrypted":"False","DatabaseSize":"6"},"Name":"mastlog","Size":256,"MaxSize":"-1","Type":"LOG","State":"ONLINE","AutoGrowth":"10","Location":"C:\\Program Files\\Microsoft SQL Server\\MSSQL15.MSSQLSERVER\\MSSQL\\DATA\\mastlog.ldf"},{"Id":1736,"Db":{"Id":1232,"DatabaseId":2,"Name":"tempdb","State":"ONLINE","RecoveryModel":"SIMPLE","SnapshotIsolationLevel":"OFF","IsEncrypted":"False","DatabaseSize":"72"},"Name":"tempdev","Size":1024,"MaxSize":"-1","Type":"ROWS","State":"ONLINE","AutoGrowth":"8192","Location":"C:\\Program Files\\Microsoft SQL Server\\MSSQL15.MSSQLSERVER\\MSSQL\\DATA\\tempdb.mdf"},{"Id":1735,"Db":{"Id":1232,"DatabaseId":2,"Name":"tempdb","State":"ONLINE","RecoveryModel":"SIMPLE","SnapshotIsolationLevel":"OFF","IsEncrypted":"False","DatabaseSize":"72"},"Name":"templog","Size":1024,"MaxSize":"-1","Type":"LOG","State":"ONLINE","AutoGrowth":"8192","Location":"C:\\Program Files\\Microsoft SQL Server\\MSSQL15.MSSQLSERVER\\MSSQL\\DATA\\templog.ldf"},{"Id":1734,"Db":{"Id":1232,"DatabaseId":2,"Name":"tempdb","State":"ONLINE","RecoveryModel":"SIMPLE","SnapshotIsolationLevel":"OFF","IsEncrypted":"False","DatabaseSize":"72"},"Name":"temp2","Size":1024,"MaxSize":"-1","Type":"ROWS","State":"ONLINE","AutoGrowth":"8192","Location":"C:\\Program Files\\Microsoft SQL Server\\MSSQL15.MSSQLSERVER\\MSSQL\\DATA\\tempdb_mssql_2.ndf"},{"Id":1733,"Db":{"Id":1232,"DatabaseId":2,"Name":"tempdb","State":"ONLINE","RecoveryModel":"SIMPLE","SnapshotIsolationLevel":"OFF","IsEncrypted":"False","DatabaseSize":"72"},"Name":"temp3","Size":1024,"MaxSize":"-1","Type":"ROWS","State":"ONLINE","AutoGrowth":"8192","Location":"C:\\Program Files\\Microsoft SQL Server\\MSSQL15.MSSQLSERVER\\MSSQL\\DATA\\tempdb_mssql_3.ndf"},{"Id":1732,"Db":{"Id":1232,"DatabaseId":2,"Name":"tempdb","State":"ONLINE","RecoveryModel":"SIMPLE","SnapshotIsolationLevel":"OFF","IsEncrypted":"False","DatabaseSize":"72"},"Name":"temp4","Size":1024,"MaxSize":"-1","Type":"ROWS","State":"ONLINE","AutoGrowth":"8192","Location":"C:\\Program Files\\Microsoft SQL Server\\MSSQL15.MSSQLSERVER\\MSSQL\\DATA\\tempdb_mssql_4.ndf"},{"Id":1731,"Db":{"Id":1232,"DatabaseId":2,"Name":"tempdb","State":"ONLINE","RecoveryModel":"SIMPLE","SnapshotIsolationLevel":"OFF","IsEncrypted":"False","DatabaseSize":"72"},"Name":"temp5","Size":1024,"MaxSize":"-1","Type":"ROWS","State":"ONLINE","AutoGrowth":"8192","Location":"C:\\Program Files\\Microsoft SQL Server\\MSSQL15.MSSQLSERVER\\MSSQL\\DATA\\tempdb_mssql_5.ndf"},{"Id":1730,"Db":{"Id":1232,"DatabaseId":2,"Name":"tempdb","State":"ONLINE","RecoveryModel":"SIMPLE","SnapshotIsolationLevel":"OFF","IsEncrypted":"False","DatabaseSize":"72"},"Name":"temp6","Size":1024,"MaxSize":"-1","Type":"ROWS","State":"ONLINE","AutoGrowth":"8192","Location":"C:\\Program Files\\Microsoft SQL Server\\MSSQL15.MSSQLSERVER\\MSSQL\\DATA\\tempdb_mssql_6.ndf"},{"Id":1738,"Db":{"Id":1232,"DatabaseId":2,"Name":"tempdb","State":"ONLINE","RecoveryModel":"SIMPLE","SnapshotIsolationLevel":"OFF","IsEncrypted":"False","DatabaseSize":"72"},"Name":"temp7","Size":1024,"MaxSize":"-1","Type":"ROWS","State":"ONLINE","AutoGrowth":"8192","Location":"C:\\Program Files\\Microsoft SQL Server\\MSSQL15.MSSQLSERVER\\MSSQL\\DATA\\tempdb_mssql_7.ndf"},{"Id":1729,"Db":{"Id":1232,"DatabaseId":2,"Name":"tempdb","State":"ONLINE","RecoveryModel":"SIMPLE","SnapshotIsolationLevel":"OFF","IsEncrypted":"False","DatabaseSize":"72"},"Name":"temp8","Size":1024,"MaxSize":"-1","Type":"ROWS","State":"ONLINE","AutoGrowth":"8192","Location":"C:\\Program Files\\Microsoft SQL Server\\MSSQL15.MSSQLSERVER\\MSSQL\\DATA\\tempdb_mssql_8.ndf"},{"Id":1727,"Db":{"Id":1233,"DatabaseId":3,"Name":"model","State":"ONLINE","RecoveryModel":"FULL","SnapshotIsolationLevel":"OFF","IsEncrypted":"False","DatabaseSize":"16"},"Name":"modeldev","Size":1024,"MaxSize":"-1","Type":"ROWS","State":"ONLINE","AutoGrowth":"8192","Location":"C:\\Program Files\\Microsoft SQL Server\\MSSQL15.MSSQLSERVER\\MSSQL\\DATA\\model.mdf"},{"Id":1726,"Db":{"Id":1233,"DatabaseId":3,"Name":"model","State":"ONLINE","RecoveryModel":"FULL","SnapshotIsolationLevel":"OFF","IsEncrypted":"False","DatabaseSize":"16"},"Name":"modellog","Size":1024,"MaxSize":"-1","Type":"LOG","State":"ONLINE","AutoGrowth":"8192","Location":"C:\\Program Files\\Microsoft SQL Server\\MSSQL15.MSSQLSERVER\\MSSQL\\DATA\\modellog.ldf"},{"Id":1725,"Db":{"Id":1234,"DatabaseId":4,"Name":"msdb","State":"ONLINE","RecoveryModel":"SIMPLE","SnapshotIsolationLevel":"ON","IsEncrypted":"False","DatabaseSize":"14"},"Name":"MSDBData","Size":1888,"MaxSize":"-1","Type":"ROWS","State":"ONLINE","AutoGrowth":"10","Location":"C:\\Program Files\\Microsoft SQL Server\\MSSQL15.MSSQLSERVER\\MSSQL\\DATA\\MSDBData.mdf"},{"Id":1724,"Db":{"Id":1234,"DatabaseId":4,"Name":"msdb","State":"ONLINE","RecoveryModel":"SIMPLE","SnapshotIsolationLevel":"ON","IsEncrypted":"False","DatabaseSize":"14"},"Name":"MSDBLog","Size":96,"MaxSize":"268435456","Type":"LOG","State":"ONLINE","AutoGrowth":"10","Location":"C:\\Program Files\\Microsoft SQL Server\\MSSQL15.MSSQLSERVER\\MSSQL\\DATA\\MSDBLog.ldf"},{"Id":1723,"Db":{"Id":1235,"DatabaseId":5,"Name":"sql_monitoring_db","State":"ONLINE","RecoveryModel":"FULL","SnapshotIsolationLevel":"OFF","IsEncrypted":"False","DatabaseSize":"400"},"Name":"sql_monitoring_db","Size":9216,"MaxSize":"-1","Type":"ROWS","State":"ONLINE","AutoGrowth":"8192","Location":"C:\\Program Files\\Microsoft SQL Server\\MSSQL15.MSSQLSERVER\\MSSQL\\DATA\\sql_monitoring_db.mdf"},{"Id":1722,"Db":{"Id":1235,"DatabaseId":5,"Name":"sql_monitoring_db","State":"ONLINE","RecoveryModel":"FULL","SnapshotIsolationLevel":"OFF","IsEncrypted":"False","DatabaseSize":"400"},"Name":"sql_monitoring_db_log","Size":41984,"MaxSize":"268435456","Type":"LOG","State":"ONLINE","AutoGrowth":"8192","Location":"C:\\Program Files\\Microsoft SQL Server\\MSSQL15.MSSQLSERVER\\MSSQL\\DATA\\sql_monitoring_db_log.ldf"},{"Id":1721,"Db":{"Id":1236,"DatabaseId":6,"Name":"backup_test","State":"ONLINE","RecoveryModel":"FULL","SnapshotIsolationLevel":"OFF","IsEncrypted":"False","DatabaseSize":"16"},"Name":"backup_test","Size":1024,"MaxSize":"-1","Type":"ROWS","State":"ONLINE","AutoGrowth":"8192","Location":"C:\\Program Files\\Microsoft SQL Server\\MSSQL15.MSSQLSERVER\\MSSQL\\DATA\\backup_test.mdf"},{"Id":1720,"Db":{"Id":1236,"DatabaseId":6,"Name":"backup_test","State":"ONLINE","RecoveryModel":"FULL","SnapshotIsolationLevel":"OFF","IsEncrypted":"False","DatabaseSize":"16"},"Name":"backup_test_log","Size":1024,"MaxSize":"268435456","Type":"LOG","State":"ONLINE","AutoGrowth":"8192","Location":"C:\\Program Files\\Microsoft SQL Server\\MSSQL15.MSSQLSERVER\\MSSQL\\DATA\\backup_test_log.ldf"},{"Id":1728,"Db":{"Id":1237,"DatabaseId":7,"Name":"missing_backup_test","State":"ONLINE","RecoveryModel":"FULL","SnapshotIsolationLevel":"OFF","IsEncrypted":"False","DatabaseSize":"16"},"Name":"missing_backup_test","Size":1024,"MaxSize":"-1","Type":"ROWS","State":"ONLINE","AutoGrowth":"8192","Location":"C:\\Program Files\\Microsoft SQL Server\\MSSQL15.MSSQLSERVER\\MSSQL\\DATA\\missing_backup_test.mdf"},{"Id":1739,"Db":{"Id":1237,"DatabaseId":7,"Name":"missing_backup_test","State":"ONLINE","RecoveryModel":"FULL","SnapshotIsolationLevel":"OFF","IsEncrypted":"False","DatabaseSize":"16"},"Name":"missing_backup_test_log","Size":1024,"MaxSize":"268435456","Type":"LOG","State":"ONLINE","AutoGrowth":"8192","Location":"C:\\Program Files\\Microsoft SQL Server\\MSSQL15.MSSQLSERVER\\MSSQL\\DATA\\missing_backup_test_log.ldf"}]}